{"type": "FeatureCollection", "features": [{"type": "Feature", "id": 3728190289, "geometry": {"type": "Point", "coordinates": [-80.744524, -1.544081]}, "properties": {"title": "Puerto López, Ecuador", "description": "Cerrada.", "marker-color": "#e32c31"}}, {"type": "Feature", "id": 2835966881, "geometry": {"type": "Point", "coordinates": [-80.456495, -0.461378]}, "properties": {"title": "Canoa, San Vicente, Ecuador", "description": "Cerrada.", "marker-color": "#e32c31"}}, {"type": "Feature", "id": 600558704, "geometry": {"type": "Point", "coordinates": [-79.65735, 0.991022]}, "properties": {"title": "Las Palmas, Esmeraldas, Ecuador.", "description": "Cerrada.", "marker-color": "#e32c31"}}, {"type": "Feature", "id": 813416292, "geometry": {"type": "Point", "coordinates": [-79.879084, 0.797109]}, "properties": {"title": "Atacames, Ecuador", "description": "Abierta."}}, {"type": "Feature", "id": 3197135566, "geometry": {"type": "Point", "coordinates": [-79.881972, 0.538725]}, "properties": {"title": "Muisne, Ecuador", "description": "Cerrada.", "marker-color": "#e32c31"}}, {"type": "Feature", "id": 1323681846, "geometry": {"type": "Point", "coordinates": [-79.874627, 0.863972]}, "properties": {"title": "Súa, Atacames, Ecuador", "description": "Abierta"}}, {"type": "Feature", "id": 2109039064, "geometry": {"type": "Point", "coordinates": [-79.811266, 0.891378]}, "properties": {"title": "Tonsupa, Atacames, Ecuador", "description": "Abierta"}}, {"type": "Feature", "id": 1747411456, "geometry": {"type": "Point", "coordinates": [-79.823182, -2.909007]}, "properties": {"title": "Balao, Ecuador.", "description": "Cerrada.", "marker-color": "#e32c31"}}, {"type": "Feature", "id": 3482298228, "geometry": {"type": "Point", "coordinates": [-79.563963, 0.993335]}, "properties": {"title": "Camarones, Esmeraldas, Ecuador", "description": "Cerrada.", "marker-color": "#e32c31"}}, {"type": "Feature", "id": 1841980505, "geometry": {"type": "Point", "coordinates": [-79.623265, 0.990851]}, "properties": {"title": "Las Piedras, Esmeraldas.", "description": "Cerrada.", "marker-color": "#e32c31"}}, {"type": "Feature", "id": 1934938531, "geometry": {"type": "Point", "coordinates": [-79.416738, 1.075426]}, "properties": {"title": "Punta Arenas, Esmeraldas.", "description": "Cerrada.", "marker-color": "#e32c31"}}, {"type": "Feature", "id": 1701550193, "geometry": {"type": "Point", "coordinates": [-79.413079, 1.076753]}, "properties": {"title": "Rio Verde, Esmeraldas.", "description": "Cerrada.", "marker-color": "#e32c31"}}, {"type": "Feature", "id": 2389210215, "geometry": {"type": "Point", "coordinates": [-78.83713, 1.289177]}, "properties": {"title": "San Lorenzo, Esmeraldas.", "description": "Cerrada.", "marker-color": "#e32c31"}}, {"type": "Feature", "id": 4036750242, "geometry": {"type": "Point", "coordinates": [-79.944135, 0.827435]}, "properties": {"title": "Tonchigüe, Atacames, Ecuador", "description": "Abierta"}}, {"type": "Feature", "id": 2845638240, "geometry": {"type": "Point", "coordinates": [-80.538089, -0.871101]}, "properties": {"title": "Crucita, Portoviejo, Ecuador", "description": "Cerrada.", "marker-color": "#e32c31"}}, {"type": "Feature", "id": 2256703036, "geometry": {"type": "Point", "coordinates": [-80.058371, 0.069467]}, "properties": {"title": "Pedernales, Manabí", "description": "Cerrada.", "marker-color": "#e32c31"}}, {"type": "Feature", "id": 255849497, "geometry": {"type": "Point", "coordinates": [-80.812447, -1.558638]}, "properties": {"title": "Puerto López, Manabí.", "description": "Cerrada.", "marker-color": "#e32c31"}}, {"type": "Feature", "id": 2441588089, "geometry": {"type": "Point", "coordinates": [-80.408927, -0.58974]}, "properties": {"title": "San Vicente, Manabí.", "description": "Cerrada.", "marker-color": "#e32c31"}}, {"type": "Feature", "id": 2588845039, "geometry": {"type": "Point", "coordinates": [-80.847849, -0.995638]}, "properties": {"title": "Santa Marianita, Manta, Ecuador", "description": "Cerrada.", "marker-color": "#cc1b15"}}, {"type": "Feature", "id": 767410712, "geometry": {"type": "Point", "coordinates": [-80.516583, -0.783147]}, "properties": {"title": "San Jacinto, Sucre, Ecuador", "description": "Cerrada.", "marker-color": "#e32c31"}}, {"type": "Feature", "id": 566516736, "geometry": {"type": "Point", "coordinates": [-80.714236, -0.949751]}, "properties": {"title": "Playa de Tarqui, Manta.", "description": "Cerrada.", "marker-color": "#e32c31"}}, {"type": "Feature", "id": 1594872242, "geometry": {"type": "Point", "coordinates": [-80.730674, -0.939814]}, "properties": {"title": "Playa Murcielago, Manta, Ecuador", "description": "Cerrada.", "marker-color": "#e32c31"}}, {"type": "Feature", "id": 706062586, "geometry": {"type": "Point", "coordinates": [-80.049174, -3.242517]}, "properties": {"title": "Jambelí, Santa Rosa, Ecuador", "description": "Cerrada.", "marker-color": "#e32c31"}}, {"type": "Feature", "id": 2126182036, "geometry": {"type": "Point", "coordinates": [-79.900583, -3.108226]}, "properties": {"title": "El guabo, Bajo Alto, Ecuador", "description": "Abierta."}}, {"type": "Feature", "id": 3437437917, "geometry": {"type": "Point", "coordinates": [-79.922896, 0.848337]}, "properties": {"title": "Same, Atacames, Ecuador", "description": "Abierta."}}, {"type": "Feature", "id": 1041393687, "geometry": {"type": "Point", "coordinates": [-80.391393, -2.63564]}, "properties": {"title": "Playas, Ecuador", "description": "Cerrada.", "marker-color": "#e32c31"}}, {"type": "Feature", "id": 1573200980, "geometry": {"type": "Point", "coordinates": [-80.246031, -2.710051]}, "properties": {"title": "Posorja, Guayaquil, Ecuador", "description": "Cerrada.", "marker-color": "#e32c31"}}, {"type": "Feature", "id": 455200396, "geometry": {"type": "Point", "coordinates": [-80.889132, -2.326967]}, "properties": {"title": "Anconcito, Salinas, Ecuador", "description": "Cerrada.", "marker-color": "#e32c31"}}, {"type": "Feature", "id": 728834349, "geometry": {"type": "Point", "coordinates": [-80.855684, -2.197519]}, "properties": {"title": "Playa Capaes, Santa Elena.", "description": "Cerrada.", "marker-color": "#e32c31"}}, {"type": "Feature", "id": 1421957084, "geometry": {"type": "Point", "coordinates": [-80.796729, -1.713603]}, "properties": {"title": "La Rinconada, Elena Canton, Ecuador", "description": "Cerrada.", "marker-color": "#e32c31"}}, {"type": "Feature", "id": 2928990631, "geometry": {"type": "Point", "coordinates": [-80.776334, -1.742569]}, "properties": {"title": "Las Nuñez, Santa Elena.", "description": "Cerrada.", "marker-color": "#e32c31"}}, {"type": "Feature", "id": 3094855602, "geometry": {"type": "Point", "coordinates": [-80.733485, -2.056599]}, "properties": {"title": "Monteverde, Ecuador", "description": "Cerrada.", "marker-color": "#e32c31"}}, {"type": "Feature", "id": 1638448817, "geometry": {"type": "Point", "coordinates": [-80.734816, -2.025115]}, "properties": {"title": "Palmar, Santa Elena, Ecuador", "description": "Cerrada.", "marker-color": "#e32c31"}}, {"type": "Feature", "id": 3611944230, "geometry": {"type": "Point", "coordinates": [-80.693304, -2.40027]}, "properties": {"title": "Puerto Chanduy, Ecuador", "description": "Cerrada.", "marker-color": "#e32c31"}}, {"type": "Feature", "id": 1986984202, "geometry": {"type": "Point", "coordinates": [-80.777509, -2.1421]}, "properties": {"title": "San Pablo, Ecuador", "description": "Cerrada.", "marker-color": "#e32c31"}}, {"type": "Feature", "id": 508205388, "geometry": {"type": "Point", "coordinates": [-80.724726, -1.941892]}, "properties": {"title": "Valdivia, Elena Canton, Ecuador", "description": "Cerrada.", "marker-color": "#e32c31"}}, {"type": "Feature", "id": 459083168, "geometry": {"type": "Point", "coordinates": [-80.984716, -2.196192]}, "properties": {"title": "Chipipe, Salinas, Ecuador", "description": "Cerrada.", "marker-color": "#e32c31"}}, {"type": "Feature", "id": 3614349561, "geometry": {"type": "Point", "coordinates": [-80.752906, -1.828165]}, "properties": {"title": "Montañita, Ecuador", "description": "Cerrada.", "marker-color": "#e32c31"}}, {"type": "Feature", "id": 2756762666, "geometry": {"type": "Point", "coordinates": [-80.809668, -1.691466]}, "properties": {"title": "Punta Blanca, Ecuador", "description": "Cerrada.", "marker-color": "#e32c31"}}, {"type": "Feature", "id": 2887168130, "geometry": {"type": "Point", "coordinates": [-80.915234, -2.292942]}, "properties": {"title": "Punta Carnero, Salinas.", "description": "Cerrada.", "marker-color": "#e32c31"}}, {"type": "Feature", "id": 2784147020, "geometry": {"type": "Point", "coordinates": [-80.968457, -2.207313]}, "properties": {"title": "Salinas, Ecuador", "description": "Cerrada.", "marker-color": "#e32c31"}}], "groups": [], "markers": [], "properties": {"simplify": 9}, "export": {"title": "Playas abiertas Ecuador", "description": "", "basemap": "maphub-classic"}}